trail_id,name,lat,lon
92278,Abenteuerparcours Bietschtalbrücke,46.307625,7.800303
50215,Dorfwaldweg (Nr. 60),46.100086,7.78163
132700,Von der Belalp zur Nesselalp und nach Birgisch,46.371605,7.974285
586714,Helsana Trail : Crans-Montana blau,46.303802,7.480442
258046,Tour du Val d'Anniviers,46.260509,7.563729
51071,Riffelalpweg (Nr. 20),46.004829,7.753629
395857,"Forêt de Pfyn/Finges - Parcours ""Les collines"" (Zurich VitaParcours)",46.293362,7.557209
179122,Weinweg: Branson - Saillon (Etappe 1),46.125088,7.086062
82109,Gasenried - SAC Bordierhütte,46.178921,7.824512
51719,Über den Waldpfad zum Saumweg,46.485622,8.266732
823068,Via Valais Cabane des Becs de Bosson - Cabane de Moiry (Etappe 4),46.164074,7.516355
16366,E-Bike-Tour,46.401859,7.778164
130858,Antronapass - Auf den Spuren der Händler,46.089752,7.963307
82706,Wallis Velo Tour: Leukerbad - Oberwald (Etappe 3),46.379604,7.627242
50572,Challenge Trail (Nr. 141),45.983212,7.782343
908545,Winterwanderweg Oberems,46.282745,7.695568
82167,Spektakuläre Alpinwanderung von Grächen zur SAC Bordierhütte,46.195915,7.838854
82702,Wallis Velo Tour: Le Bouveret - Sion (Etappe 10),46.385712,6.853126
132657,Simplonpass - Mäderlicka - Rothwald,46.246708,8.029043
834886,Laggintal,46.195602,8.055374
996861,"Blaue Piste ""La Jaune"" (Tour für Anfänger) / Rando Parc Morgins",46.236568,6.85678
490544,Gspon-Trail,46.225163,7.902203
78096,Bike-Tour Matterhorn Valley Trail (Nr. 20),46.023682,7.748114
960155,ZIN-DW - Cabane des Becs de Bosson,46.180695,7.55768
130863,Familienerlebnis auf dem Hannig,46.116428,7.932386
131948,Säumerromantik Grimselpass,46.562073,8.338498
107918,Val d'Anniviers - Täler & Musts,46.292034,7.533768
132605,Rundweg Simplon Dorf,46.195644,8.055564
212772,Trockener Steg to Zermatt,45.970284,7.723116
50673,Furi-Stafel (Nr. 122),46.001442,7.731531
398541,Sentier viticole,46.29398,7.521589
946939,Champéry - Rumières - Sur Cou,46.174953,6.870243
164057,Rundweg Ritzinger Feldkapelle,46.457115,8.223653
212811,Hotel Weisshorn to Zinal,46.208218,7.617756
205607,Winterwanderung von der Chiematte zur Bergstation Luftseilbahn,46.370022,7.967558
14412,Gebirgswald Rundgang,46.399502,7.772404
996859,17. Morgins - Savolaire,46.237022,6.857569
179119,Durch das Vallon de They zu den Quellen der Vièze,46.23711,6.856621
974661,Von Blatten bei Naters zum Aussichtspunkt,46.359158,7.98387
53512,Sonnenweg (Nr. 22),45.983238,7.782318
130904,Heimischgarte-Trail,46.153168,7.928511
593369,Wanderweg entlang der Vièze-Schluchten,46.252163,6.946979
164019,Fahrradgenuss auf dem Rottenweg,46.530819,8.342672
339422,Durch den Lärchwald von Blatten bei Naters auf die Belalp,46.359417,7.984084
170839,Alpenpässeweg: Simplonpass - Gspon,46.244488,8.021495
138936,Mountainbike-Route Stoneman Glaciara by Roland Stauder,46.429268,8.162402
169250,Sentier des Chamois,46.08046,7.269093
946949,15. Sentier des Röstis,46.206383,6.87378
135553,Tour des Combins,45.949154,7.208395
599056,Längfluh / Saas-Fee,46.08427,7.895821
8468,Lötschentaler Höhenweg (Fafleralp - Faldumalp),46.434711,7.86186
84698,Der Gornergletscher im Wandel der Zeit (Nr. 17b),46.001423,7.731536
164037,Binntalwanderung,46.411961,8.152329
50937,Hörnliweg (Nr. 27),45.991596,7.709289
82710,Wallis Velo Tour: Sion - Crans-Montana (Etappe 1),46.227547,7.359025
80802,Valais Alpine Bike,46.096096,7.228962
16040,Lötschentaler Breithorn,46.41964,7.819342
776610,Val d‘Anniviers Tour,46.133472,7.63261
586302,Rothwald - Furggubäumlicke - Alpe Veglia,46.279434,8.037905
405168,"Rundwanderung von der Riederalp via Silbersand, Bischofssitz und zurück",46.376163,8.026239
519061,Tour de Mayentset,46.255432,7.307271
88344,Moos-Trail (Nr. F1),46.001389,7.737132
50365,Täsch-Randa (Nr. 131),46.067677,7.77529
494824,Hannigalp Wannihorn Trail,46.2066,7.867953
908541,Panorama-Trail,46.259521,7.830348
71973,The Matterhorn Trek,46.020714,7.746419
771098,ZIN-DW - Moiry Glacier - Tour 2500 - Moiry Barrage,46.106544,7.578899
14711,Lötschenlücke,46.420067,7.820046
389972,Hannig Bergfahrt,46.116398,7.9324
490549,Waldegga Trail,46.225193,7.902193
81417,Leukerbad-Flüealp,46.379555,7.627151
92255,Klettersteig Eggishorn,46.427219,8.093119
89366,Col de Champex – Mythische Alpenpässe,46.077286,7.075734
767160,Via Valais Cabane des Aiguilles Rouges - Cabane des Becs de Bosson (Etappe 3),46.057487,7.456157
309998,Gspon Panorama Bike,46.225182,7.902196
946937,Croix-de-Culet - Lac Vert - Champéry,46.175224,6.845791
383160,Hohsaas Bike-Trail,46.139637,7.991111
164050,Urschgen Trail,46.467201,8.24687
50601,Schaliberg (Nr. 64),46.100071,7.78165
170573,Haute Route van Chamonix naar Zermatt,46.086086,7.223949
130936,Klettersteig Jegihorn,46.138615,7.964016
120650,Freichirunde: von Fiesch auf den Schinerewysse,46.404041,8.135339
7225,Champéry - Bonavau-Rossétan-Roc Coupé,46.175076,6.870317
120659,Rundwanderung von der Bettmeralp zu den Chatzulechern und zurück,46.386379,8.05769
82100,Grächen Wald- und Naturrundweg: Grächen - Hannigalp – Stafel – Chrütteribord - Lowizig – Dorf Grächen,46.2062,7.867682
777931,Nesselloop Bike,46.371845,7.974532
340887,Veros Schatzsuche: Belalp-Alpe Bäll-Antoniuswald-Blatten bei Naters,46.371895,7.974674
862973,SFT:  Gspon - Simplonpass,46.225018,7.902289
120800,Wanderung von der Bettmeralp via Bettmersee aufs Bettmerhorn,46.386395,8.0577
16958,Petersgrat,46.425694,7.758236
394698,Wanderung über die Goms Bridge ins Musikdorf Ernen bis Fiesch,46.410797,8.151066
157010,Via Francigena: Grand-St-Bernard - Echevennoz,45.868938,7.171097
470000,Goldtoni - Alpenbogen A062 Le Buet-Relais d'Arpette,46.016449,6.918442
175614,Von der Cabane Brunet zur Cabane FXB Panossière,46.030258,7.274209
361171,ZIN-MTB - MTB - Sorebois,46.136288,7.626465
120651,Wanderung von der Belalp über die Hängebrücke zur Riederalp,46.371922,7.974707
908542,Panorama–Winterwanderweg Moosalp,46.238522,7.853156
14860,Hockenhorntour (ab Lauchernalp),46.411209,7.774082
459169,"Stadtrundfahrt mit dem ""Kleinen Simplon Express"" Brig-Glis-Naters",46.316723,7.98817
85392,Kneippweg Blitzingen,46.441738,8.201885
14274,Kippel - Lauchernalp,46.399136,7.771733
339699,Mit Abkürzung von der Belalp aufs Sparrhorn,46.397991,7.977726
229772,Sommer Gommerlauf - Viertelmarathon,46.499462,8.301374
175509,Pfad der Sinne,46.136353,7.242941
812680,"Visperterminen, Hueoterhuesi",46.258137,7.90286
15206,Obers Färda,46.394073,7.759586
862941,Helsana Trail Gelb,46.110619,7.925681
175728,Col de Crans-Montana,46.291882,7.53444
554974,Heidnisch Tossu,46.206779,7.867895
946935,Schneeschuhtrail Champoussin - Frâchette,46.206184,6.867264
196084,Vom Gemmipass zur Lämmerenhütte,46.398251,7.616201
120744,Martisberg-Runde ab Fiesch über Riederalp und Bettmeralp,46.403927,8.135286
169498,Schneeschuhtrail Wasenalp / Hohliecht,46.287163,8.044484
85384,Gommer Höhenweg: Oberwald - Bellwald,46.530819,8.34278
178559,Massaweg von Blatten bei Naters nach Mörel,46.360302,7.986779
586359,Von Saillon zur Hängebrücke von Farinet,46.172321,7.187568
51818,Über fünf Alpen ins Rhonetal,46.404404,7.740727
398486,Bisse Neuf ou Bénou,46.308804,7.531363
179696,Valais Vélo Tour 2: Crans-Montana - Leukerbad,46.31237,7.48023
190945,Sion - Bisse de Clavau- Icogne,46.241108,7.360801
175727,Autour des petits lacs de Crans-Montana,46.312382,7.48024
819423,Vom Mattmark-Stausee zur goldenen Madonna auf dem Monte Moro Pass,46.047859,7.954258
389058,Arolla to Les Haudères/La Sage,46.025612,7.481195
276420,Entlang dem Wasser,46.306431,7.749663
164002,Rundweg Trützisee,46.491615,8.282057
120801,Winterwanderung von Betten Dorf via Goppisberg nach Greich,46.375603,8.067746
306127,Alpage Tour,46.30687,7.388805
529111,Tour du Mont-Blanc,46.030182,7.116437
552504,Ovronnaz/Mayens de Chamoson – Wallis Velo Tour,46.186291,7.208484
1000687,Torrenttrail Bike,46.369099,7.648636
50436,Abenteuerweg (Nr. 1),46.021358,7.797148
132667,Simplonpass - Glishorn - Brig,46.250149,8.030927
239063,De cabane en cabane via Cabane de la Tièche,46.332634,7.43738
51073,Reblehrpfad - Tärbiner Kulturweg,46.292274,7.881147
490537,Tyndall Trail,46.371807,7.974456
313083,Bike-Tour Gletschergarten Loop (Nr. 24),46.023567,7.748023
682755,E-bike : Découverte culturelle,46.292637,7.533491
91013,Col de Portes de Culet – Mythische Alpenpässe,46.249332,6.948076
167913,Schwarzsee-Stafel (Nr. 123),45.99194,7.709034
354681,Rundwanderung zum Lac d'Arpitettaz,46.136658,7.625889
244796,Spitzhorli Rundtour,46.24958,8.030148
50364,Bike-Tour Blauherd-Riffelalp (Nr. 23),46.016899,7.786457
175730,Montée Steve Morabito,46.264511,7.45953
1040636,Best of Tour du Saint-Bernard,45.951244,7.207915
132682,ViaStockalper - Stockalperweg (Simplonpass - Simplon Dorf),46.245956,8.024827
850702,Via Valais Randa - Mountain Lodge Ze Seewjinu (Etappe 8),46.099792,7.781995
170848,Schneeschuhtrail Bord-Trail,46.380802,7.991235
50694,"Matterhorn Ultraks Trail ""Mountain""",46.021992,7.748795
178475,Geologische Wanderung zum Stausee Vieux-Emosson,46.067947,6.936609
189772,Chemin Du Vignoble - étape de St-Léonard à Loèche/La Souste,46.254559,7.416207
189805,Tseuzier Le Tour du Lac,46.345127,7.432452
805089,Mattmark Bike,46.094112,7.957832
974668,Rundwanderung vom Salwald nach Brischeru,46.317757,7.917434
50799,Platthorn / Mettelhorn (Nr. 33),46.023632,7.748071
210504,The Matterhorn Trail,45.991539,7.709323
812681,Tärbiner Winterwanderweg,46.258137,7.902862
120804,"Winterwanderweg Rundweg Bettmeralp ""Waldpromenade""",46.386211,8.057603
922048,Suonentrail Unterbäch,46.274582,7.797814
172470,"Bättelmatthorn, 3044 m",46.472687,8.382482
132587,Simplon Höhenweg,46.246635,8.029024
928020,Kreuzboden-Trail,46.128014,7.938811
172351,Auf der Alten Bergstrasse von Naters nach Blatten bei Naters,46.325508,7.988867
499550,Valais Bike,46.379539,7.627126
130872,Kapellenweg,46.116428,7.938537
50419,Vitaparcours Zermatt,46.012737,7.740852
946929,Die Tour des Dents Blanches,46.149796,6.831661
84817,Winterwanderweg: Grächen - Bärgji,46.196892,7.841099
120794,Wanderung von Fiesch via Lax über Hockmatta und Twingischlucht nach Binn,46.403503,8.133512
214000,Rhein-Reuss-Rhôneweg: Saillon - Martigny,46.171478,7.184798
85362,Galmihornhütte-Wanderung - «Rundum hibsch»,46.485493,8.266402
50803,Tour Monte Rosa - Matterhorn,46.023594,7.748043
601921,Jolischlucht,46.306396,7.801206
50189,Rundwanderung Täsch (Nr. 42),46.067661,7.775241
834928,Col du Basset,45.929401,7.107705
490552,Richinen Gassen Weg,46.440838,8.165835
130889,Winter-Talweg Saastal,46.153397,7.928287
183350,Crans-Montana Bike Marathon,46.304821,7.480653
50455,Direttissima (Nr. 4),46.029488,7.77436
130874,Maultierweg / Alter Saumweg Saas-Fee,46.123535,7.936877
78278,Wallis Velo Tour: Crans-Montana-Leukerbad (Etappe 2),46.312351,7.480245
266155,Goldtoni - Alpenbogen A057 Col du Demecre-Auberge de Salanfe,46.173985,7.082032
194351,Sentier des bouquetins,46.081116,7.39771
576967,De Chalais aux chalets ... en passant par LE RICARD,46.254311,7.493986
553290,N°110 Tour des cabanes,46.081215,7.213008
5114,Talabfahrt (Rinderhütte-Tunnel-Folljeret-Leukerbad),46.369141,7.648802
164008,Rottenweg,46.530689,8.343455
16359,AllroundTour,46.401882,7.778268
1034298,Jeizi Enduro,46.326431,7.722601
16361,MagicTour,46.402779,7.782669
189812,Thermalquellen-Wanderung in Leukerbad,46.37944,7.629431
156799,Via Francigena: Martigny - Orsières,46.100925,7.073772
707125,Wanderung von Fiesch ins Fieschertal über die Aspi-Titter Hängebrücke nach Bellwald,46.406113,8.134389
50626,"Matterhorn Ultraks Trail ""Vertical""",46.021706,7.749095
120669,Themenweg Erlebnispfad (Gratweg) von der Moosfluh zur Riederfurka,46.377846,8.033335
1011155,"Piste bleu/rouge ""Abérieu par Savolaire""  | Rando-Parc",46.236641,6.856798
120758,Schneeschuhtrail Fiesch - Fiescheralp,46.400204,8.130036
343596,La Dérupe,46.268414,7.511972
389015,Cabane du Prafleuri to Arolla,46.071682,7.379794
178575,Les cols du Grand-St-Bernard,45.868912,7.170946
731418,Fionnay – Col des Otanes - Corbassière,46.032745,7.306736
279338,St-Luc : Rando Parc / Pluton,46.217953,7.61185
586317,Galerie Défago,46.175102,6.870419
91494,Klettersteig Evolène,46.106087,7.501924
239024,Par les Alpages du Dedans,46.34639,7.435366
120683,"Winterwanderung von der Bettmeralp via Ried, Domo nach Betten Dorf",46.386459,8.057741
107941,Zinal: DW - Lac de Moiry - tour 2500,46.138348,7.574321
313099,Bike-Tour Oberer Höhenweg (Nr. 30),46.011803,7.767324
132706,Suonenwanderung Bärgeri,46.293835,8.023131
276415,Rundweg Nideralpe - Chlusmatte,46.227676,8.012144
374692,Parcours n°3 - Hôtel Weisshorn,46.220467,7.597326
210501,The Five Lakes Walk,46.01738,7.785914
50942,Zermatt-Zmutt (via Bielti/Furi) (Nr. 120),46.016006,7.742594
212750,Rhein-Reuss-Rhôneweg:  Gampel - Salgesch,46.316856,7.743949
519108,Trail Verbier St-Bernard,46.095909,7.22748
499553,Valais Bike Unterbäch-Grächen (Etappe 2),46.284622,7.800747
394704,Barrage de Moiry/Grimentz to Zinal,46.138355,7.574204
14255,Wiler - Blatten,46.401169,7.777468
354686,Wanderung nach Saint-Luc oder Chandolin,46.208305,7.617982
130892,Hinter dem Mittaghorn,46.068527,7.915601
946946,04. Les Crosets - Sur Cou - Chavalet,46.185627,6.83862
130869,Klettersteig Mittaghorn,46.081371,7.917731
202107,Lötschberger Südrampe von Hohtenn nach Naters,46.319054,7.756081
12397,Der Friedliche: Rundwanderung Eistli,46.394215,7.759852
501833,Einfache Rundwanderung auf der Riffelalp,46.004971,7.753835
485654,Rothwald Trail,46.279263,8.038005
395840,Plattjen Bike-Trail,46.104408,7.925194
185995,Col du Sanetsch,46.322746,7.299738
85936,Mattmark - Staudamm Trophy,46.293774,7.882643
62527,Pfulwe,46.020737,7.798165
556816,Höhenweg Schalb-Jungu,46.21701,7.816806
120738,"Aussichtsreiche Mountainbikerunde über Breiten, Bister und Hockmatte",46.404125,8.135408
421178,ZIN-MTB - MTB - Grimentz - Vercorin,46.136276,7.626478
593336,Talweg Stalden - Saas,46.232101,7.870684
175513,Von Anzère zum Lac de Tseuzier,46.294125,7.395519
14236,Wiler - Fafleralp,46.401169,7.777468
361146,ZIN-DW - Bendolla - Orzival - Mayoux,46.180981,7.557332
500081,Lehrpfad Charlotte La Marmotte,45.931911,7.09873
132694,Termen - zGartu - Mörel,46.327625,8.021648
130945,Im Tal der Almageller,46.098206,7.95629
81466,Tour durchs Trienttal,46.132668,7.04407
120678,Von der Riederalp nach Fiesch,46.378021,8.03371
50801,AHV-Weg / unterer Höhenweg (Nr. 109),46.013103,7.745157
201191,Veros Panorama Trail,46.371815,7.974468
559768,Wasserlehrpfad,46.251427,7.829288
164061,SnowRabbit,46.428951,8.162922
533117,Mattmark Bike,46.094112,7.957832
85395,Gommer Höhenweg: Oberwald - Münster,46.530827,8.342766
15205,Rundwanderung Hockuchriz,46.411285,7.774283
120664,"Wanderung von der Fiescheralp zur Riederalp via ""Herrenweg"" und ""Aletschpromenade""",46.413197,8.103081
82151,Ravensburger Spieleweg: Zwergen-Route,46.195938,7.839117
16437,Uisters Tal,46.43475,7.86193
120682,Wanderung von der Riederalp über den Moränenweg zum Bettmerhorn,46.378223,8.033093
50518,Bike-Tour Täsch-Täschhütte (Nr. 25),46.067699,7.775395
1000693,Jeizibärg Bike,46.326389,7.72274
112856,Erlebnispfad Reckingen-Gluringen,46.468174,8.245411
911350,Breithorn,45.937401,7.729476
946953,Chemin des poussettes,46.175076,6.870345
164029,Zum Schranni,46.428589,8.161551
984901,Von Mund nach Birgisch und Naters,46.314644,7.941581
595633,Chemin d'Ossona,46.207291,7.427574
16050,Lötschenlücke,46.547958,7.98645
525021,Winter Mattmarktour,46.094296,7.957546
167092,Wanderung ins Vallon de Réchy zum Lac du Louché,46.229351,7.529486
315039,Châteaux de Sion und Umgebung,46.22681,7.358632
50737,Klettersteig Schweifinen - Route C,46.023659,7.748089
201802,Auf der historischen Strasse von Naters auf die Belalp,46.325485,7.988921
289404,Grimentz - Mottec n°4,46.178589,7.576314
203264,Sentier viticole / Rebweg,46.309116,7.577722
92277,Klettersteig Moiry,46.139652,7.570085
130939,Alpenblumenpromenade,46.138615,7.964031
185337,Bellwald: Mutti-Rundweg,46.430592,8.155387
911348,Schwarztor,45.938404,7.729368
80834,Tour du Haut Lac,46.386456,6.852059
132649,Schneeschuhtrail Rothwald,46.279263,8.038005
167081,Tour du Val d'Anniviers: Vallon de Réchy - Bergsee Le Louché (Etappe 5),46.229351,7.529487
150443,Rondom Zermatt,46.066875,7.775071
489960,Fleschen Trail,46.428986,8.163531
132604,Talweg Ganter,46.2939,8.023125
175654,Tour de la falaise de St-Maurice,46.215843,7.002369
586711,Vitaparcours Moubra,46.303768,7.480458
946942,Champéry - Progrès - Sous Sex - Champéry,46.17477,6.870268
1032845,Jardin d'escalade des Crêts / Grimentz,46.180252,7.557737
132663,Rothwald: Rundweg «Über d Egge»,46.282944,8.037392
758867,Hannig Trail,46.115143,7.916396
50362,White Magic Trail (Nr. 143),45.991238,7.710549
272191,Schneeschuh-Trail St-Jean - Mayoux,46.197269,7.583667
358839,5 Seen Tour Lötschental,46.43441,7.862295
14227,Kreuzweg Tenn Rundgang,46.401169,7.777458
538917,Champex to Trient via Fenêtre d’Arpette,46.030582,7.115404
896068,Mattmark Memorial 1965 Halbmarathon-Trail,46.154385,7.92807
161199,Aminona-Aprili Trail,46.332069,7.523538
389983,Gruben to St Niklaus,46.210976,7.706002
120786,"Rundwanderung von Fiesch über Bellwald, Niederwald und Ernen nach Fiesch",46.404545,8.136045
91011,Simplon – Mythische Alpenpässe,46.31913,7.988119
63236,Route Nendaz – Nendaz,46.180218,7.291054
984906,Von Mund zur Kapelle Gstein,46.31464,7.941576
14259,Lauchernalp - Blatten,46.411243,7.774164
317883,Hängebrücke Kittbrücke,46.505077,8.308755
535369,Trient to Tré-le-Champ via Col de Balme,46.056595,6.994056
50567,Täschalp-Tufteren (Nr. 48),46.058228,7.811216
343636,Bisse de Vercorin - Rückkehr bei den Mayens de Réchy,46.255955,7.529572
519122,Lehrpfad Charlotte la Marmotte,46.030659,7.114955
447835,Skitour auf das Galehorn (2797 m.ü.M.),46.223976,8.018337
1020692,ZIN - WEX - Geologische wandeling in Moiry,46.138363,7.57432
974667,Vom Hotel Belalp zum Hohbiel,46.380737,7.991149
130891,Glacier Trail,46.068508,7.915598
50218,Bahnweg Täsch-Zermatt (Nr. 50),46.067677,7.77527
383161,Dorfrundfahrt Saas-Fee,46.107441,7.925258
183141,Bisse du Sillonin (Sillonin-Suone),46.290916,7.439428
85374,Biketour Gämschfax,46.531616,8.342936
862984,Vitaparcours Saas-Fee,46.117123,7.931241
946944,02. Champoussin - U Yeü Tsalé - Les Bochasses,46.206326,6.866885
130878,Sonnenweg Hannig im Winter,46.115017,7.916481
189740,Kulturweg Dala,46.379745,7.627597
52266,Weg der Stille (Nr. 24),45.983242,7.782375
120742,Alpine Wanderung UNESCO-Höhenweg vom Bettmerhorn zum Eggishorn,46.410599,8.076719
120751,Rundwanderung um den Bettmersee,46.386448,8.057742
16365,TorTour,46.420639,7.819245
16046,Hockenhorn - Gitzifurggu - Leukerbad,46.425694,7.75804
310001,Grächen Loop,46.196426,7.839712
908548,Roggen-Dorf Erschmatt - Chalberweid - Erschmatt,46.321888,7.689421
405271,Winterwanderung Rundweg Bettmeralp - Lischa,46.386292,8.057667
343559,La Lé,46.229324,7.529485
2548,Top - Flyer Route / Flyer Tour,46.401855,7.778164
343637,Ar du Tsan,46.229328,7.529485
195115,Von Visperterminen durch das Nanztal auf den Simplonpass,46.255535,7.923748
175725,Boucle découverte de Crans-Montana,46.31229,7.48022
50166,Zermatt-Ried (Nr. 107),46.023636,7.748072
15155,Fafleralp - Blatten,46.434715,7.861962
120675,"Winterwanderung am Wysswasser – Fiesch, Fieschertal und zurück",46.404655,8.136271
210503,Walk to Zmutt & Furi,46.01593,7.742583
283338,Vercorin: Rando Parc / Santa Maria,46.253563,7.53553
51022,Tour Matterhorn,46.100094,7.781609
85365,Auf zum Brudelhorn,46.491276,8.281494
389061,Le Châble to Cabane du Mont Fort,46.081329,7.21268
368317,Familienwanderung von Ulrichen nach Reckingen,46.505131,8.308809
170055,Mit dem Fahrrad über den Simplonpass,46.31889,7.988196
120640,Wanderung von Mörel-Filet über Zen Achru nach Termen,46.356346,8.047089
946948,06. Frâchette - Croix de l'Aiguille,46.206497,6.873304
147759,Rundtour von Zermatt über Höhbalmen,46.024334,7.748577
50229,5-Seenweg (Nr. 11),46.01688,7.786405
823005,Bodma Winterwanderweg,46.258156,7.902781
389062,Alternative Day La Sage to Cabane de Moiry,46.099468,7.51426
91224,Grosser Sankt Bernhard – Mythische Alpenpässe,46.087822,7.05527
164043,Stalenkapelle Trail,46.462933,8.233899
65671,Breithorn Besteigung,45.937485,7.729533
203285,Weinweg: Sion – Venthône (Etappe 3),46.241062,7.360485
64249,Bisse du Tsittoret,46.312386,7.480312
698711,Fafleralp Biketour,46.363541,7.757276
85929,Emosson - Staudamm Trophy,46.088295,7.055027
82153,Ravensburger Spieleweg: Prinzen-Route,46.196568,7.839825
50688,Wisshornweg (Nr. 32),46.02364,7.748074
120698,Von der Bettmeralp nach Fiesch,46.390114,8.062161
239012,"Le Trubelstock 2997,8 m.",46.334641,7.536895
405191,Wanderung vom Eggishorn über die Elselicka auf die Fiescheralp,46.427299,8.093164
132701,Kulturweg Landmauer Gamsen,46.318886,7.988297
405170,"Wanderung von der Riederalp über Oberried, Ried-Mörel nach Mörel-Filet",46.376167,8.026136
170849,Schneeschuhtrail Holzji-Trail,46.358799,7.983921
610038,Trail der Patrouilleure 15k,46.311623,7.480387
120670,Wanderung von Fiesch via Martisberg und Goppisberg nach Mörel-Filet,46.403343,8.133488
85344,Kulturweg in Geschinen,46.495472,8.280025
185338,Bellwald: Fleschen-Rundweg,46.428955,8.163457
258053,Veros Schatzsuche: Belalp-Holzji-Blatten bei Naters,46.371822,7.974478
100362,Bij de Grand Combin,46.0322,7.308573
210496,"Walk to Hotel Weisshorn, from St. Luc",46.229385,7.609927
190776,Bike-Tour Hohtälli (Nr. 27),45.983105,7.782141
167099,Rundweg am Bergsturz der Diablerets,46.279804,7.214799
86826,Moiry - Staudamm Trophy,46.279045,7.54066
937233,Croix de Culet - La Pisa - Champéry,46.175152,6.845198
16368,SunTour,46.401558,7.777637
123744,Trient to Tré-le-Champ (Argentière) via Le Tour,46.054298,6.993641
112360,Saas-Fee - Täler & Musts,46.293232,7.881369
503082,Schlittelweg Fiescheralp - Laxerwald - Lax,46.412849,8.103509
92757,Europaweg,46.196045,7.83921
85937,Mauvoisin - Staudamm Trophy,46.081139,7.212966
1053397,360° Loop am Gornergrat,45.983288,7.782285
5113,Wolfstritt,46.369022,7.648802
130938,Almageller Höhenweg,46.138603,7.96402
163519,Cry d'Er - Crans,46.335426,7.47831
519111,Tour des Combins,45.954391,7.21019
541501,Pont Bouthanais - Susten,46.311749,7.64334
1053395,Weg der Stille vom Gornergrat bis zur Riffelalp,45.983288,7.782285
996867,"Rote Piste ""MYET"" / Rando-Parc Morgins",46.236629,6.85671
577845,De Chalais aux chalets ... en passant par LE VALLON,46.227711,7.529739
16052,Ferdenrothorn,46.39423,7.75965
190936,Chemin des villages d’Evolène,46.108528,7.500412
946950,16. Val-d'Illiez - Champoussin,46.204292,6.892654
1002536,Von Geimen übers Nessel zur Belalp,46.343006,7.984162
130942,Suonenweg Saas-Almagell - Saas-Grund,46.092167,7.958116
761114,Jazzilücke-Trail,46.094482,7.956051
130883,Carl Zuckmayer Weg,46.114468,7.930879
14328,Hollandiahütte SAC,46.420067,7.820046
308358,Grimsel Bike,46.561752,8.338066
164687,Bike-Tour 4-Seen (Nr. 29),46.016941,7.786748
850680,Trail Running (Simplon Dorf - Gondo - Bognanco),46.195648,8.0564
85385,Rundwanderung von Grimselpass - Sidelhorn via Jostsee,46.56176,8.33808
937236,La Frâche - Lac d'Antème - La Frâche,46.179493,6.891185
120696,"Grosse Drei-Seen-Wanderung: Bettmersee, Blausee, Märjelensee",46.386322,8.057643
143527,Stoneman Glaciara,46.428421,8.164132
1022765,Trotti-Bike Abfahrt von der Belalp nach Blatten,46.371662,7.974837
14246,Im Tellin,46.419445,7.81909
200424,Rundwanderung über die Aspi-Titter Hängebrücke und Goms Bridge,46.403362,8.134449
946956,10. Grand-Paradis - La Lui,46.16317,6.861
1023772,Spaziergang Grindji,46.313366,7.990949
82707,Wallis Velo Tour: St-Luc Anniviers - Veysonnaz (Etappe 6),46.221287,7.595598
50512,Randa-Kinhütte (Nr. 67),46.099834,7.781673
7335,Champéry - Seen von Antème,46.175106,6.870403
519106,Tour du Saint-Bernard,45.951241,7.207918
156801,Via Francigena: St. Maurice - Martigny,46.219471,7.004037
82150,Ravensburger Spieleweg: Prinzessinnen-Route,46.195602,7.83905
368318,ViaRhôna : Saint-Gingolph / Thonon / Evian,46.394157,6.805285
682757,E-bike : Escape,46.31266,7.480224
85363,Über den Galebrunne,46.462811,8.233973
120684,Rundwanderung von Mörel-Filet zur Tunetschalp und zurück,46.356304,8.047014
130876,Waldweg Bodmen,46.108818,7.92924
16043,Sackhorn,46.425591,7.75808
130905,Saas-Balen - Heimischgarte,46.153336,7.928395
545817,ViaStockalper - Stockalperweg (Brig - Domodossola),46.319054,7.988643
220165,Bisse de Tsittoret,46.321266,7.492993
428068,Tour du Val d'Anniviers - Road Bike,46.255928,7.529391
8474,Lötschentaler Sagenweg,46.41124,7.774115
82101,Stafel-Panoramarundweg: Hannigalp Bergstation – Härdera – Stafel – Hannigalp Bergstation,46.206738,7.867911
1000713,Moosalp Panoramaweg,46.251423,7.829434
944888,Winter Wonder Trail (Nr. 146),46.00185,7.750893
51024,Zermatt-Zmutt (Nr. 121),46.015999,7.742586
164058,Rundweg Chastebiel,46.444614,8.20488
178477,Sentier de Salanfe,46.140545,6.992834
7750,Panoramaweg über den Aletschgletscher,46.393154,8.062355
586320,Hochebene von Vérossaz,46.216785,7.002698
82704,Wallis Velo Tour: Verbier - Champéry (Etappe 8),46.096176,7.22853
1049481,Riffelberg-Trail (F3),45.992882,7.754534
120765,Nordic Walking Rundweg Waldpromenade – Bettmeralp,46.39109,8.067368
120654,Winterwanderweg Moosfluh - Chüestall - Riederalp,46.39595,8.048288
190765,Les Etangs des Briesses,46.293926,7.468212
264887,Schneeschuhwanderung von La Forclaz zu den Mayens de Bréona,46.086178,7.518512
911349,Dufourspitze,45.956802,7.814545
167055,Von Savoleyres zum Bergsee Lac des Vaux,46.12262,7.219714
1022710,Champéry - Chemin des Poussettes,46.174942,6.871375
834888,Furggu,46.195595,8.055384
561695,ZIN-DW - Tignousa - Chandolin,46.229126,7.609835
170836,Alpenpässeweg: Rosswald - Simplonpass,46.304276,8.040512
586309,Lac des Vaux,46.12212,7.219094
211532,A l'arrière de l'eau de la cascade,46.334663,7.537017
1022711,Val-d'Illiez - Les Bains,46.204319,6.89294
50596,Arigscheis (Nr. 41),46.06768,7.775301
120754,Wanderung vom Bettmerhorn via Riederfurka zur Riederalp,46.410534,8.077286
130903,Carl Zuckmayer Winterwanderweg,46.114449,7.930864
182126,Rundwanderung Roc Coupé – Bonavau – Champéry,46.175106,6.870421
80835,CM 1988 Bike,46.331959,7.526176
264400,Von Sion an der Bisse de Clavau nach Crans-Montana,46.227524,7.359033
98075,Langlaufloipe -Simplon Pass,46.24902,8.029878
848041,Planige - Col de la Malvoisie - Salquenen,46.292313,7.532728
595621,Kreuzboden - Heimischgarte - Saas-Grund,46.138641,7.964003
91225,Col de la Gueulaz – Mythische Alpenpässe,46.067551,6.9659
87243,Wasserleiten-Wanderung: Grächen - Chilcheri - Riedbach,46.195835,7.839093
82099,Furggen Erlebnisrundweg: Hannigalp Bergstation – Kapelle – Höhenweg bis Abzweigung Furgge – Stafel – Hannigalp Bergstation,46.206696,7.867812
132637,Gondo Marathon 2. Etappe,46.316444,8.017363
264781,Goldtoni - Alpenbogen A054 Gsteig-Arveyes,46.38747,7.267458
86825,Pas de Morgins - Mythische Alpenpässe,46.249496,6.947927
312307,Bike-Tour Tufteren-Europaweg-Täsch (Nr. 4),46.029518,7.774363
199911,Gemsweg,46.10854,7.928856
16044,Elwertätsch,46.425472,7.758291
1000715,Sentier du Balcon du Mont-Blanc,46.082573,6.976055
452361,Skitour auf das Staldhorn (2463 m.ü.M.),46.245968,8.024648
82709,Wallis Velo Tour: Oberwald - Brig (Etappe 4),46.530956,8.342702
2560,EasyTour,46.399437,7.772246
50542,Täschalp-Fluhalp (Pfulwe) (Nr. 46),46.058201,7.811207
159608,Cry d’Er-Crans-Montana Weg,46.334949,7.477493
201805,Rundweg Natischerberg,46.325508,7.988867
908549,Albinen - Guttet - Feschel,46.343693,7.632872
130861,Wege der Gletscherausblicke Schwarzberggletscher,46.048267,7.95482
164022,Grimsel - Bike,46.561745,8.338151
132594,Zwischbergenpass: Gondo - Zwischbergenpass - Saas-Almagell,46.195827,8.140672
46988,Winter-Erlebnisweg Lauchernalp,46.411205,7.774082
50805,Riffelalp-Winkelmatten (Nr. 114),46.004864,7.753651
85375,Biketour Galmihornhütte,46.468472,8.243939
82705,Wallis Velo Tour: Veysonnaz - Verbier (Etappe 7),46.195164,7.34114
201804,Von der Belalp zur Oberaletschhütte,46.371899,7.974688
183337,Lötschberger Südrampe,46.306709,7.881307
168797,Winterwanderung Simplonpass,46.245644,8.024021
91495,Via Ferrata in der Mauvoisin-Schlucht,46.003052,7.343204
120661,Wanderung vom Fieschertal via Fiesch nach Ernen,46.424576,8.142985
1000698,Torgon – Täler & Musts,46.310997,6.900368
1000694,Col de Champoussin – Wallis Velo Tour,46.175114,6.870336
112361,Val d'Hérens - Täler & Musts,46.229774,7.403495
50297,Dorfweg Randa (Nr. 133),46.100044,7.781684
23467,Lauchern Trail,46.411217,7.774179
946934,Lac de Soi,46.181965,6.900261
50253,Blumenweg (Nr. 3),46.016804,7.786342
552505,Salgesch-Leukerbad – Wallis Velo Tour,46.311638,7.570353
130890,Winterwanderweg Britanniahütte,46.068604,7.915606
613209,Über die Felsen,46.110775,7.494478
14289,Ferden - Faldumalp,46.394215,7.759884
120783,Auf dem Ritzweg und der Chastenbielstraße,46.403545,8.133489
132692,ViaStockalper - Stockalperweg (Brig - Simplonpass),46.319115,7.9897
513541,Schneeschuhlaufen Rosswald - Fleschboden,46.304276,8.041059
205051,Weinweg: Saillon bis Sion (Etappe 2),46.171921,7.184102
312309,Bike-Tour Blauherd-Sunnegga (Nr. 5),46.01685,7.78638
707118,Rundwanderung von der Fiescheralp durch den Tälligrattunel zur Märjela und zum Gletscherrand,46.413502,8.103486
946945,03. Champoussin Ecotrace,46.206608,6.866917
317880,Tour Blinnenhorn,46.468319,8.243857
595636,Suone Visperi: Gamsen-Eyholz-Visp,46.305847,7.953619
405299,Wanderung von der Fiescheralp via Burghütte und Aspi-Titter Hängebrücke nach Bellwald,46.413372,8.10341
946936,Grand-Paradis - Barme,46.16304,6.860994
130940,Mattmark-Stausee-Rundgang,46.048241,7.95494
212804,Europahutte to St Niklaus,46.105774,7.806507
130882,Weg der 4000er,46.139671,7.991011
117015,The Three Lakes Walk,46.229324,7.60985
277645,Rinderhutte to Restipass,46.369247,7.648785
389059,Cabane du Mont Fort to Cabane du Prafleuri,46.083851,7.281143
183357,Lens - Statue du Christ-Roi,46.281624,7.449096
14409,Kapellen am Lötschentaler Höhenweg,46.434711,7.86186
200490,Der Safranlehrpfad in Mund,46.314728,7.941786
1022708,Champéry - La Cour,46.181389,6.8743
175729,Secret Roads,46.31234,7.48014
50380,Mark Twain Weg (Nr. 18),45.992805,7.754931
61913,Dom Besteigung,46.102669,7.817651
494826,Alpe Äpnet Waldrand Weg,46.196087,7.839344
358837,4 Seen Tour Lötschental,46.434402,7.862304
2917,Bella-Tola,46.219692,7.602324
178569,Tour de l'éboulement des Diablerets,46.281708,7.216969
80803,Champex Bike,46.029949,7.116842
14684,Lötschentaler Sagenweg,46.41124,7.774102
120668,Themenweg Kastanienselve Salzgäb in Mörel-Filet,46.355713,8.043985
189787,Weinweg: Venthône – Leuk (Etappe 4),46.306698,7.529426
18150,Hockenhorn - Lötschenpass - Gasterental,46.425549,7.758193
343638,Bisse de Ricard - Chalais,46.26825,7.511674
183267,Gondo: Schmugglerpfad nach Bugliaga,46.198242,8.126693
167067,Rund um den Stausee Mauvoisin,46.002487,7.342287
112362,Val d’Illiez - Täler & Musts,46.249725,6.948061
209107,Rhein-Reuss-Rhôneweg: Gletsch - Münster,46.562344,8.361749
996860,21. Morgins - Chanso,46.237225,6.856776
